{
    "events": [
        {
            "title": "Public Health Association Anti Smoking Week",
            "start_date": "04-02-2012",
            "end_date": "04-05-2012",
            "location": "Montclair State University Student Center Quad",
            "address_1": "1 Normal Ave ",
            "address_2": "Montclair, NJ 07043",
            "city": "Montclair ",
            "state": "NJ",
            "zip": "07043",
            "registration_url": "",
            "is_road_tour": "no",
            "latitude": "40.86090",
            "longitude": "-74.19780"
        },
        {
            "title": "Bridging the Gap Between Nature and Children",
            "start_date": "04-07-2012",
            "end_date": "04-07-2012",
            "location": "Edwin B. Forsythe National Wildlife Refuge",
            "address_1": "800 Great Greek Road",
            "address_2": "",
            "city": "Oceanville ",
            "state": "NJ",
            "zip": "08231",
            "registration_url": "",
            "is_road_tour": "no",
            "latitude": "39.46735",
            "longitude": "-74.45267"
        },
        {
            "title": "Public Health Fair",
            "start_date": "04-05-2012",
            "end_date": "04-05-2012",
            "location": "The Center for Human Development, Inc.",
            "address_1": "2301 Cove Avenue",
            "address_2": "",
            "city": "La Grande",
            "state": "OR",
            "zip": "97850",
            "registration_url": "",
            "is_road_tour": "no",
            "latitude": "45.32649",
            "longitude": "-118.07553"
        },
        {
            "title": "Healthy Eating with the Florida Tracking Program",
            "start_date": "04-02-2012",
            "end_date": "04-02-2012",
            "location": "Southwood Complex",
            "address_1": "",
            "address_2": "Tallahassee, FL",
            "city": "Tallahassee",
            "state": "FL",
            "zip": "32399",
            "registration_url": "www.floridatracking.com",
            "is_road_tour": "no",
            "latitude": "30.38490",
            "longitude": "-84.22920"
        },
        {
            "title": "Lassen County Public Health Open House",
            "start_date": "04-02-2012",
            "end_date": "04-02-2012",
            "location": "Lassen County Public Health Department",
            "address_1": "1445 Paul Bunyan Road",
            "address_2": "",
            "city": "Susanville",
            "state": "CA",
            "zip": "96130",
            "registration_url": "",
            "is_road_tour": "no",
            "latitude": "40.42389",
            "longitude": "-120.65210"
        },
        {
            "title": "Minority Health Month Kickoff-Eat to Live",
            "start_date": "04-01-2000",
            "end_date": "04-30-2000",
            "location": "Toledo Farmer’s Market",
            "address_1": "525 Market St",
            "address_2": "",
            "city": "Toledo",
            "state": "OH",
            "zip": "",
            "registration_url": "",
            "is_road_tour": "no",
            "latitude": "41.64544",
            "longitude": "-83.54174"
        },
        {
            "title": "Minority Health Month: Skip the Violence Exercise Instead &amp; Skip the Bad Stuff: Healthy Eating",
            "start_date": "03-31-2012",
            "end_date": "03-31-2012",
            "location": "Glenwood Recreation Center",
            "address_1": "1925 W.Broad St",
            "address_2": "",
            "city": "Columbus",
            "state": "OH",
            "zip": "",
            "registration_url": "",
            "is_road_tour": "no",
            "latitude": "39.95532",
            "longitude": "-83.04945"
        },
        {
            "title": "Anderson County Health Department  Public Health Week activites",
            "start_date": "04-02-2012",
            "end_date": "04-06-2012",
            "location": "Anderson Co. Health Department,  Clinton TN",
            "address_1": "710 North Main St.",
            "address_2": "",
            "city": "Clinton",
            "state": "TN",
            "zip": "37716",
            "registration_url": "",
            "is_road_tour": "no",
            "latitude": "36.11235",
            "longitude": "-84.13227"
        },
        {
            "title": "Scott County Health Department PHW Celebration",
            "start_date": "04-02-2012",
            "end_date": "04-06-2012",
            "location": "Scott Co.Health Department in Huntsville Tennessee",
            "address_1": "344 Court Street",
            "address_2": "",
            "city": "Huntsville",
            "state": "TN",
            "zip": "37756",
            "registration_url": "",
            "is_road_tour": "no",
            "latitude": "36.41063",
            "longitude": "-84.49065"
        },
        {
            "title": "St. Louis City Health Department Presents National Public Health Week",
            "start_date": "04-02-2012",
            "end_date": "04-06-2012",
            "location": "Abram's Building Lobby- St.Louis City Health Department",
            "address_1": "1520 Market ",
            "address_2": "",
            "city": "Saint Louis",
            "state": "MO",
            "zip": "63103",
            "registration_url": "",
            "is_road_tour": "no",
            "latitude": "38.62857",
            "longitude": "-90.20328"
        },
        {
            "title": "Radiation Disasters: From Hiroshima to Fukushima",
            "start_date": "04-02-2012",
            "end_date": "04-02-2012",
            "location": "University at Buffalo (also available as live webinar)",
            "address_1": "144 Farber Hall",
            "address_2": "3435 Main St.",
            "city": "Buffalo",
            "state": "NY",
            "zip": "14214",
            "registration_url": "https://sphhpbuffalo.givezooks.com/events/radiologic-disasters-from-hiroshima-to-fukushima",
            "is_road_tour": "no",
            "latitude": "42.95356",
            "longitude": "-78.81517"
        },
        {
            "title": "Public Health Week Kickoff at the University of Delaware",
            "start_date": "04-02-2012",
            "end_date": "04-02-2012",
            "location": "Trabant University Center Kiosk A",
            "address_1": "University of Delaware",
            "address_2": "17 West Main Street",
            "city": "Newark",
            "state": "DE",
            "zip": "19716",
            "registration_url": "",
            "is_road_tour": "no",
            "latitude": "39.67989",
            "longitude": "-75.75373"
        },
        {
            "title": "National Public Health Week Maui Mixer",
            "start_date": "04-02-2012",
            "end_date": "04-02-2012",
            "location": "Saeng's Thai Restaurant",
            "address_1": "Vineyard St.",
            "address_2": "",
            "city": "Wailuku",
            "state": "HI",
            "zip": "96825",
            "registration_url": "",
            "is_road_tour": "no",
            "latitude": "20.88809",
            "longitude": "-156.50542"
        },
        {
            "title": "National Public Health Week Oahu Mixer",
            "start_date": "04-04-2012",
            "end_date": "04-04-2012",
            "location": "Gordon Biersch Restaurant",
            "address_1": "Aloha Tower Market Place",
            "address_2": "",
            "city": "Honolulu",
            "state": "HI",
            "zip": "96825",
            "registration_url": "www.hawaiipublichealth.org",
            "is_road_tour": "no",
            "latitude": "21.29623",
            "longitude": "-157.70199"
        },
        {
            "title": "A Healthier America Begins Today: Chicago Lighthouse Observes NPHW 2012",
            "start_date": "04-02-2012",
            "end_date": "04-06-2012",
            "location": "The Chicago Lighthouse",
            "address_1": "1850 W. Roosevelt Road",
            "address_2": "",
            "city": "Chicago",
            "state": "IL",
            "zip": "60608",
            "registration_url": "",
            "is_road_tour": "no",
            "latitude": "41.86689",
            "longitude": "-87.67333"
        },
        {
            "title": "Help your Students and Communities Make Better Health Choices",
            "start_date": "03-22-2012",
            "end_date": "04-11-2012",
            "location": "http://promotions.usa.gov/f35phw.html#publications",
            "address_1": "",
            "address_2": "",
            "city": "Washington",
            "state": "DC",
            "zip": "20010",
            "registration_url": "http://promotions.usa.gov/f35phw.html#publications",
            "is_road_tour": "no",
            "latitude": "38.93390",
            "longitude": "-77.03054"
        },
        {
            "title": "2012 Mansfield/Ontario/Richland County Health Department Public Health Day Celebration",
            "start_date": "04-04-2012",
            "end_date": "04-04-2012",
            "location": "Mansfield/Ontario/Richland County Health Department",
            "address_1": "555 Lexington Ave.",
            "address_2": "",
            "city": "Mansfield",
            "state": "OH",
            "zip": "44907",
            "registration_url": "seden@richlandhealth.org",
            "is_road_tour": "no",
            "latitude": "40.73999",
            "longitude": "-82.52786"
        },
        {
            "title": "Temple Public Health&#8217;s Community Health Fair",
            "start_date": "03-31-2012",
            "end_date": "03-31-2012",
            "location": "John F. Street Community Center",
            "address_1": "1103 Poplar Street",
            "address_2": "",
            "city": "Philadelphia",
            "state": "PA",
            "zip": "19122",
            "registration_url": "",
            "is_road_tour": "no",
            "latitude": "39.96895",
            "longitude": "-75.15458"
        },
        {
            "title": "National Public Health Week Celebration",
            "start_date": "04-02-2012",
            "end_date": "04-06-2012",
            "location": "Care Resource - Fort Lauderdale",
            "address_1": "871 W. Oakland Park Blvd",
            "address_2": "",
            "city": "Fort Lauderdale",
            "state": "FL",
            "zip": "33311",
            "registration_url": "www.careresource.org",
            "is_road_tour": "no",
            "latitude": "26.16645",
            "longitude": "-80.15371"
        },
        {
            "title": "Social Media + Communicable Disease",
            "start_date": "04-04-2012",
            "end_date": "04-04-2012",
            "location": "Jose Pistolas, Second Floor",
            "address_1": "263 South 15th Street ",
            "address_2": "",
            "city": "Philadelphia",
            "state": "PA",
            "zip": "19102",
            "registration_url": "",
            "is_road_tour": "yes",
            "latitude": "39.94770",
            "longitude": "-75.16627"
        },
        {
            "title": "Clean Water for Peru - Water and Sanitation Fundraiser",
            "start_date": "03-04-2012",
            "end_date": "03-04-2012",
            "location": "Aquaymanto Grill",
            "address_1": "Westone Plaza, Ste D",
            "address_2": "",
            "city": "Chantilly",
            "state": "VA",
            "zip": "20151",
            "registration_url": "",
            "is_road_tour": "no",
            "latitude": "38.87042",
            "longitude": "-77.44560"
        },
        {
            "title": "Launch of the National Health Service Corps 40 Clinicians in 40 Weeks Series",
            "start_date": "04-02-2012",
            "end_date": "11-30-2000",
            "location": "",
            "address_1": "",
            "address_2": "",
            "city": "Rockville",
            "state": "MD",
            "zip": "20857",
            "registration_url": "",
            "is_road_tour": "no",
            "latitude": "39.06275",
            "longitude": "-77.11666"
        },
        {
            "title": "Pueblo&#8217;s State of Public Health and National Public Health Week Kick-off",
            "start_date": "04-02-2012",
            "end_date": "04-02-2012",
            "location": "Pueblo City-County Health Department",
            "address_1": "101 West 9th Street",
            "address_2": "",
            "city": "Pueblo",
            "state": "CO",
            "zip": "81003",
            "registration_url": "",
            "is_road_tour": "no",
            "latitude": "38.27555",
            "longitude": "-104.60755"
        },
        {
            "title": "Let&#8217;s get moving! Linden Street Neighborhood Walk",
            "start_date": "04-05-2012",
            "end_date": "04-05-2000",
            "location": "Meet at High Rock Field on Linden St.",
            "address_1": "",
            "address_2": "",
            "city": "Needham",
            "state": "MA",
            "zip": "02492",
            "registration_url": "",
            "is_road_tour": "no",
            "latitude": "42.27480",
            "longitude": "-71.24584"
        },
        {
            "title": "Let&#8217;s get moving! Avery Crossings Neighborhood Walk",
            "start_date": "04-03-2012",
            "end_date": "04-03-2000",
            "location": "Meet at the Avery Crossings & Manor Parking Lot in the Heights",
            "address_1": "",
            "address_2": "",
            "city": "Needham",
            "state": "MA",
            "zip": "02492",
            "registration_url": "",
            "is_road_tour": "no",
            "latitude": "42.27480",
            "longitude": "-71.24584"
        },
        {
            "title": "Let&#8217;s Get Moving - Ellis St. Neighborhood Walk",
            "start_date": "04-02-2012",
            "end_date": "04-02-2000",
            "location": "Meet at Mills Field Tennis Courts located on Ellis St.   ",
            "address_1": "",
            "address_2": "",
            "city": "Needham",
            "state": "MA",
            "zip": "02492",
            "registration_url": "",
            "is_road_tour": "no",
            "latitude": "42.27480",
            "longitude": "-71.24584"
        },
        {
            "title": "Campus visits to interview students on their views on binge drinking and sexual health",
            "start_date": "04-03-2012",
            "end_date": "04-05-2012",
            "location": "Northwestern University and Loyola University",
            "address_1": "",
            "address_2": "",
            "city": "Chicago",
            "state": "IL",
            "zip": "60660",
            "registration_url": "",
            "is_road_tour": "no",
            "latitude": "41.99013",
            "longitude": "-87.66305"
        },
        {
            "title": "Lunch n Learns",
            "start_date": "02-29-2012",
            "end_date": "11-30-2000",
            "location": "",
            "address_1": "",
            "address_2": "",
            "city": "Washington",
            "state": "NC",
            "zip": "27889",
            "registration_url": "",
            "is_road_tour": "no",
            "latitude": "35.54655",
            "longitude": "-77.05217"
        },
        {
            "title": "Paws for a Cause Dog Walk",
            "start_date": "04-22-2012",
            "end_date": "04-22-2012",
            "location": "",
            "address_1": "",
            "address_2": "",
            "city": "Washington",
            "state": "NC",
            "zip": "27889",
            "registration_url": "",
            "is_road_tour": "no",
            "latitude": "35.54655",
            "longitude": "-77.05217"
        },
        {
            "title": "HIV &amp; Syphilis Testing at Teens Talking Action Event",
            "start_date": "04-28-2012",
            "end_date": "04-28-2012",
            "location": "",
            "address_1": "",
            "address_2": "",
            "city": "Greensboro",
            "state": "NC",
            "zip": "27410",
            "registration_url": "http://www.co.guilford.nc.us/blogs/dph/wp-content/uploads/2012/01/free-hiv-and-std-testing-12-2011-logo.pdf",
            "is_road_tour": "no",
            "latitude": "36.12703",
            "longitude": "-79.88568"
        },
        {
            "title": "Tyrell Hall- Health Fair and FREE Health Screenings",
            "start_date": "04-05-2012",
            "end_date": "04-05-2012",
            "location": "",
            "address_1": "",
            "address_2": "",
            "city": "Lillington",
            "state": "NC",
            "zip": "",
            "registration_url": "http://www.healthylivingforalifetime.com/hlfl-events/find-an-event/",
            "is_road_tour": "no",
            "latitude": "35.39933",
            "longitude": "-78.81585"
        },
        {
            "title": "Washington County Health Dept.- Healthy Living Fair and Health Screenings",
            "start_date": "04-03-2012",
            "end_date": "04-03-2012",
            "location": "North Carolina",
            "address_1": "",
            "address_2": "",
            "city": "Plymouth",
            "state": "NC",
            "zip": "27962",
            "registration_url": "",
            "is_road_tour": "no",
            "latitude": "35.86683",
            "longitude": "-76.74856"
        },
        {
            "title": "Martin County Health Department- Health Fair and FREE Health Screenings",
            "start_date": "04-02-2012",
            "end_date": "04-02-2012",
            "location": "",
            "address_1": "",
            "address_2": "",
            "city": "Williamston ",
            "state": "NC",
            "zip": "27892",
            "registration_url": "",
            "is_road_tour": "no",
            "latitude": "35.85460",
            "longitude": "-77.05551"
        },
        {
            "title": "Upstate Medical University&#8217;s Health Carnival",
            "start_date": "04-03-2012",
            "end_date": "04-03-2012",
            "location": "Mary Nelson Youth Center",
            "address_1": "2849 South Salina Street",
            "address_2": "",
            "city": "Syracuse",
            "state": "NY",
            "zip": "13205",
            "registration_url": "",
            "is_road_tour": "no",
            "latitude": "43.01984",
            "longitude": "-76.14256"
        },
        {
            "title": "Public Health History Walking Tour",
            "start_date": "04-12-2012",
            "end_date": "11-30-2000",
            "location": "Oakdale Cemetery",
            "address_1": "",
            "address_2": "",
            "city": "Wilmington",
            "state": "NC",
            "zip": "28401",
            "registration_url": "",
            "is_road_tour": "no",
            "latitude": "34.30237",
            "longitude": "-77.98529"
        },
        {
            "title": "Dialogue for a Healthier Community",
            "start_date": "04-02-2012",
            "end_date": "04-02-2012",
            "location": "",
            "address_1": "",
            "address_2": "",
            "city": "Charlotte",
            "state": "NC",
            "zip": "28223",
            "registration_url": "http://health.uncc.edu/Health_Dialogue",
            "is_road_tour": "no",
            "latitude": "35.30243",
            "longitude": "-80.73461"
        },
        {
            "title": "Upstate Medical University&#8217;s Public Health Lecture Series",
            "start_date": "04-03-2012",
            "end_date": "04-06-2012",
            "location": "Upstate Medical University Campus",
            "address_1": "766 Irving Avenue",
            "address_2": "",
            "city": "Syracuse",
            "state": "NY",
            "zip": "13210",
            "registration_url": "not required",
            "is_road_tour": "no",
            "latitude": "43.04139",
            "longitude": "-76.13788"
        },
        {
            "title": "Searcy County Health and Safety Fair",
            "start_date": "04-28-2012",
            "end_date": "04-28-2012",
            "location": "Searcy County Civic Center",
            "address_1": "515 Zack Road",
            "address_2": "",
            "city": "Marshall",
            "state": "AR",
            "zip": "72650",
            "registration_url": "",
            "is_road_tour": "no",
            "latitude": "35.94682",
            "longitude": "-92.67549"
        },
        {
            "title": "2010 Delta Omega/PHSA Service Day",
            "start_date": "04-06-2012",
            "end_date": "04-06-2012",
            "location": "Boys and Girls Club of Alachua County Woodland Park Campus",
            "address_1": "1900 SE 4th Street",
            "address_2": "",
            "city": "Gainesville",
            "state": "FL",
            "zip": "32641",
            "registration_url": "",
            "is_road_tour": "no",
            "latitude": "29.63358",
            "longitude": "-82.31605"
        },
        {
            "title": "Great Plains Public Health Training Center Leadership Speake Series",
            "start_date": "04-06-2012",
            "end_date": "04-06-2012",
            "location": "University of Nebraska Medical Center, College of Public Health ",
            "address_1": "",
            "address_2": "",
            "city": "Omaha",
            "state": "NE",
            "zip": "",
            "registration_url": "",
            "is_road_tour": "no",
            "latitude": "41.25236",
            "longitude": "-95.99799"
        },
        {
            "title": "&#8220;The Apple Pushers&#8221; Documentary Screening",
            "start_date": "04-03-2012",
            "end_date": "04-03-2012",
            "location": "University of Nebraska Medical Center College of Public Health ",
            "address_1": "",
            "address_2": "",
            "city": "Omaha",
            "state": "NE",
            "zip": "",
            "registration_url": "",
            "is_road_tour": "no",
            "latitude": "41.25236",
            "longitude": "-95.99799"
        },
        {
            "title": "Community Kickoff Event",
            "start_date": "04-02-2012",
            "end_date": "04-02-2012",
            "location": "",
            "address_1": "",
            "address_2": "",
            "city": "Omaha",
            "state": "NE",
            "zip": "",
            "registration_url": "",
            "is_road_tour": "no",
            "latitude": "41.25236",
            "longitude": "-95.99799"
        },
        {
            "title": "Indigenous Health Leadership Institute",
            "start_date": "03-30-2012",
            "end_date": "04-01-2012",
            "location": "Native Health Initiative",
            "address_1": "",
            "address_2": "",
            "city": "Albuquerque",
            "state": "NM",
            "zip": "87101",
            "registration_url": "",
            "is_road_tour": "no",
            "latitude": "35.07204",
            "longitude": "-106.64663"
        },
        {
            "title": "Community Walk/Ride",
            "start_date": "04-07-2012",
            "end_date": "04-07-2012",
            "location": "Sutter Bike Path",
            "address_1": "Begining at Royo Ranchero Dr,",
            "address_2": "",
            "city": "Yuba City",
            "state": "CA",
            "zip": "95993",
            "registration_url": "",
            "is_road_tour": "no",
            "latitude": "39.14918",
            "longitude": "-121.67782"
        },
        {
            "title": "Personal Wellness Assessment",
            "start_date": "04-05-2012",
            "end_date": "04-05-2012",
            "location": "Sutter County Health Education",
            "address_1": "1445 Veterans Memorial Circle",
            "address_2": "",
            "city": "Yuba City",
            "state": "CA",
            "zip": "95993",
            "registration_url": "",
            "is_road_tour": "no",
            "latitude": "39.14595",
            "longitude": "-121.63790"
        },
        {
            "title": "Family Fun Day",
            "start_date": "04-04-2012",
            "end_date": "04-04-2012",
            "location": "Gauche Aquatic Park",
            "address_1": "421 C Street ",
            "address_2": "",
            "city": "Yuba City",
            "state": "CA",
            "zip": "95991",
            "registration_url": "",
            "is_road_tour": "no",
            "latitude": "39.13240",
            "longitude": "-121.61023"
        },
        {
            "title": "Community Mall Walk",
            "start_date": "04-02-2012",
            "end_date": "04-02-2012",
            "location": "Yuba-Sutter Mall",
            "address_1": "1215 Colusa Avenue",
            "address_2": "",
            "city": "Yuba City",
            "state": "CA",
            "zip": "95993",
            "registration_url": "",
            "is_road_tour": "no",
            "latitude": "39.14421",
            "longitude": "-121.63240"
        },
        {
            "title": "The Health Hop",
            "start_date": "04-04-2012",
            "end_date": "04-04-2012",
            "location": "Oklahoma City-County Health Department",
            "address_1": "",
            "address_2": "",
            "city": "Oklahoma City",
            "state": "OK",
            "zip": "73105",
            "registration_url": "",
            "is_road_tour": "no",
            "latitude": "35.52086",
            "longitude": "-97.50577"
        },
        {
            "title": "Knox County Health Department",
            "start_date": "04-02-2012",
            "end_date": "04-05-2012",
            "location": "multiple sites",
            "address_1": "140 Dameron Ave",
            "address_2": "",
            "city": "Knoxville",
            "state": "TN",
            "zip": "37917",
            "registration_url": "",
            "is_road_tour": "no",
            "latitude": "35.97755",
            "longitude": "-83.92759"
        },
        {
            "title": "Public Health &#8220;Myths&#8221; Quiz",
            "start_date": "04-02-2012",
            "end_date": "04-08-2012",
            "location": "Brookline Department of Public Health website",
            "address_1": "",
            "address_2": "",
            "city": "Brookline",
            "state": "MA",
            "zip": "02445",
            "registration_url": "",
            "is_road_tour": "no",
            "latitude": "42.33280",
            "longitude": "-71.13891"
        },
        {
            "title": "Celebrating National Public Health Week - Cleveland Dept. of Public Health",
            "start_date": "04-02-2012",
            "end_date": "04-06-2012",
            "location": "J. Glen Smith Health Center and McCafferty Health Center",
            "address_1": "11100 St. Clair Ave., Cleveland",
            "address_2": "4242 Lorain Ave., Cleveland",
            "city": "Cleveland",
            "state": "OH",
            "zip": "44113",
            "registration_url": "",
            "is_road_tour": "no",
            "latitude": "41.50241",
            "longitude": "-81.69296"
        },
        {
            "title": "Health Champion Awards",
            "start_date": "04-02-2012",
            "end_date": "04-06-2000",
            "location": "",
            "address_1": "",
            "address_2": "",
            "city": "Seattle",
            "state": "WA",
            "zip": "98125",
            "registration_url": "https://wspha1.wufoo.com/forms/2012-health-champions-nomination-form/",
            "is_road_tour": "no",
            "latitude": "47.71702",
            "longitude": "-122.30093"
        },
        {
            "title": "Walk to Work Day",
            "start_date": "04-06-2012",
            "end_date": "04-06-2012",
            "location": "Several starting locations throughout Portland, OR",
            "address_1": "",
            "address_2": "",
            "city": "Portland",
            "state": "OR",
            "zip": "97204",
            "registration_url": "https://docs.google.com/spreadsheet/viewform?formkey=dHhPeVBWNmZ2R2xZamxEZG1xS0twc1E6MQ#gid=0",
            "is_road_tour": "no",
            "latitude": "45.51696",
            "longitude": "-122.67329"
        },
        {
            "title": "National Public Health Week with the Brazos County Health Department",
            "start_date": "04-02-2012",
            "end_date": "04-04-2012",
            "location": "Brazos County Health Department",
            "address_1": "210 N. Texas Ave.",
            "address_2": "",
            "city": "Bryan",
            "state": "TX",
            "zip": "77803",
            "registration_url": "",
            "is_road_tour": "no",
            "latitude": "30.67505",
            "longitude": "-96.36989"
        },
        {
            "title": "Health Walk /Fair",
            "start_date": "04-04-2012",
            "end_date": "04-04-2000",
            "location": "Charlotte Amalie Harbor/Emancipation Garden",
            "address_1": "St. Thomas, U.S. Virgin Islands 00801",
            "address_2": "",
            "city": "St. Thomas",
            "state": "VA",
            "zip": "00801",
            "registration_url": "",
            "is_road_tour": "no",
            "latitude": "18.34281",
            "longitude": "-64.93261"
        },
        {
            "title": "Public Health Month Kick Off",
            "start_date": "04-02-2012",
            "end_date": "04-02-2012",
            "location": "City Hall; Ante Room",
            "address_1": "36 Court Street",
            "address_2": "",
            "city": "Springfield",
            "state": "MA",
            "zip": "01103",
            "registration_url": "",
            "is_road_tour": "no",
            "latitude": "42.10118",
            "longitude": "-72.58931"
        },
        {
            "title": "Healthy Habits Day",
            "start_date": "04-13-2012",
            "end_date": "04-13-2012",
            "location": "Oregon State University Memorial Union Quad ",
            "address_1": "",
            "address_2": "",
            "city": "Corvallis",
            "state": "OR",
            "zip": "97331",
            "registration_url": "",
            "is_road_tour": "no",
            "latitude": "44.56427",
            "longitude": "-123.27859"
        },
        {
            "title": "Why don&#8217;t people wash their hands?: Underestimating the challenges to motivating a &#8220;simple behavior&#8221;",
            "start_date": "04-05-2012",
            "end_date": "04-05-2000",
            "location": "University at Buffalo (also available as live webinar)",
            "address_1": "144 Farber Hall",
            "address_2": "3435 Main St.",
            "city": "Buffalo",
            "state": "NY",
            "zip": "14214",
            "registration_url": "http://sphhpbuffalo.givezooks.com/events/why-don-t-people-wash-their-hands",
            "is_road_tour": "no",
            "latitude": "42.95356",
            "longitude": "-78.81517"
        },
        {
            "title": "Oklahoma Health &amp; Wellness Expo 2012",
            "start_date": "04-07-2012",
            "end_date": "04-07-2012",
            "location": "Cox Convention Center",
            "address_1": "1 Myriad Gardens ",
            "address_2": "",
            "city": "Oklahoma City",
            "state": "OK",
            "zip": "73102",
            "registration_url": "",
            "is_road_tour": "no",
            "latitude": "35.46525",
            "longitude": "-97.51793"
        },
        {
            "title": "&#8220;Rethink Your Drink OKC&#8221; Challenge",
            "start_date": "04-02-2012",
            "end_date": "04-08-2012",
            "location": "Oklahoma City-County Health Department and Wellness Now partners",
            "address_1": "",
            "address_2": "",
            "city": "Oklahoma City",
            "state": "OK",
            "zip": "",
            "registration_url": "",
            "is_road_tour": "no",
            "latitude": "35.46756",
            "longitude": "-97.51643"
        },
        {
            "title": "&#8220;Rethink Your Drink OKC&#8221; Days",
            "start_date": "04-02-2012",
            "end_date": "04-08-2000",
            "location": "Oklahoma City",
            "address_1": "Oklahoma City-County Health Department, 921 NE 23rd Street",
            "address_2": "Oklahoma City, OK",
            "city": "Oklahoma City",
            "state": "OK",
            "zip": "73105",
            "registration_url": "",
            "is_road_tour": "no",
            "latitude": "35.49367",
            "longitude": "-97.49554"
        },
        {
            "title": "Spring For Health",
            "start_date": "03-27-2012",
            "end_date": "03-27-2012",
            "location": "CSUN campus, East  Cleary Walk",
            "address_1": "18111 Nordhoff Street",
            "address_2": "",
            "city": "Northridge",
            "state": "CA",
            "zip": "91330",
            "registration_url": "",
            "is_road_tour": "no",
            "latitude": "34.24180",
            "longitude": "-118.52827"
        },
        {
            "title": "Utah Public Health Association Amazing Public Health Race",
            "start_date": "04-03-2012",
            "end_date": "04-03-2012",
            "location": "",
            "address_1": "",
            "address_2": "",
            "city": "Salt Lake City",
            "state": "UT",
            "zip": "",
            "registration_url": "",
            "is_road_tour": "no",
            "latitude": "40.76078",
            "longitude": "-111.89105"
        },
        {
            "title": "Anderson County Health Department Bicycle Rodeo",
            "start_date": "04-28-2012",
            "end_date": "04-28-2012",
            "location": "Bissell Park Oak Ridge, TN",
            "address_1": "1403 Oak Ridge Turnpike ",
            "address_2": "",
            "city": "Oak Ridge",
            "state": "TN",
            "zip": "37830",
            "registration_url": "N/A",
            "is_road_tour": "no",
            "latitude": "36.01433",
            "longitude": "-84.25763"
        },
        {
            "title": "Arkansas Public Health Week",
            "start_date": "04-02-2012",
            "end_date": "04-08-2012",
            "location": "Arkansas, statewide",
            "address_1": "4815 W. Markham St.",
            "address_2": "Slot 65",
            "city": "Little Rock",
            "state": "AR",
            "zip": "72205",
            "registration_url": "",
            "is_road_tour": "no",
            "latitude": "34.75176",
            "longitude": "-92.32638"
        },
        {
            "title": "The Past, Present and Future of Public Health – It’s still all about Prevention",
            "start_date": "04-04-2012",
            "end_date": "04-04-2012",
            "location": "Peabody City Hall",
            "address_1": "Peabody City Hall, 24 Lowell Street, Peabody, MA 01960",
            "address_2": "",
            "city": "Peabody",
            "state": "MA",
            "zip": "01960",
            "registration_url": "",
            "is_road_tour": "no",
            "latitude": "42.52604",
            "longitude": "-70.92879"
        },
        {
            "title": "2012 Health Fair",
            "start_date": "04-07-2012",
            "end_date": "04-07-2000",
            "location": "BOCC Dream Center",
            "address_1": "5616 Fox Road",
            "address_2": "5220 HOLLY RIDGE FARM RD",
            "city": "Raleigh",
            "state": "NC",
            "zip": "27604",
            "registration_url": "",
            "is_road_tour": "no",
            "latitude": "35.85711",
            "longitude": "-78.56675"
        },
        {
            "title": "Health information Booth",
            "start_date": "04-02-2012",
            "end_date": "04-06-2012",
            "location": "St. Petersberg College- Health Edcucation Campus",
            "address_1": "7200, 66th Street",
            "address_2": "",
            "city": "Pinellas Park",
            "state": "FL",
            "zip": "33781",
            "registration_url": "",
            "is_road_tour": "no",
            "latitude": "27.83828",
            "longitude": "-82.72863"
        },
        {
            "title": "Panel discussion: Incorporating healthy living in the daily life-",
            "start_date": "04-03-2012",
            "end_date": "04-03-2012",
            "location": "St. Petersberg College- Health Edcucation Campus",
            "address_1": "7200, 66th Street",
            "address_2": "",
            "city": "Pinellas Park",
            "state": "FL",
            "zip": "33781",
            "registration_url": "",
            "is_road_tour": "no",
            "latitude": "27.83828",
            "longitude": "-82.72863"
        },
        {
            "title": "12th Annual Public Health Heroes Celebration",
            "start_date": "04-03-2012",
            "end_date": "04-03-2012",
            "location": "Multnomah Building ",
            "address_1": "501 SE Hawthorne Blvd. ",
            "address_2": "",
            "city": "Portland ",
            "state": "OR",
            "zip": "97214",
            "registration_url": "",
            "is_road_tour": "no",
            "latitude": "45.51226",
            "longitude": "-122.66078"
        },
        {
            "title": "A Healthier America Begins with Healthy Kids",
            "start_date": "04-10-2012",
            "end_date": "04-11-2012",
            "location": "Roberson Elementary",
            "address_1": "1100 E. Kearney St.,",
            "address_2": "",
            "city": "Springfield",
            "state": "MO",
            "zip": "65803",
            "registration_url": "",
            "is_road_tour": "no",
            "latitude": "37.24062",
            "longitude": "-93.27694"
        },
        {
            "title": "New York Medical College NPHW - Taiji and Qigong",
            "start_date": "04-03-2012",
            "end_date": "04-03-2012",
            "location": "School of Health Sciences and Practice, Center for Interactive Learning ",
            "address_1": "",
            "address_2": "",
            "city": "Valhalla",
            "state": "NY",
            "zip": "10595",
            "registration_url": "http://www.nymc.edu/shsp/nphw/registration.asp",
            "is_road_tour": "no",
            "latitude": "41.07482",
            "longitude": "-73.77513"
        },
        {
            "title": "New York Medical College NPHW - The Asthma Epidemic",
            "start_date": "04-02-2012",
            "end_date": "04-02-2012",
            "location": "New York Medical College",
            "address_1": "School of Health Science and Practice, Center for Interactive Learning",
            "address_2": "",
            "city": "Valhalla",
            "state": "NY",
            "zip": "10549",
            "registration_url": "http://www.nymc.edu/shsp/nphw/registration.asp",
            "is_road_tour": "no",
            "latitude": "41.19835",
            "longitude": "-73.71248"
        },
        {
            "title": "Bowling Green State University:&nbsp; Latino Student Union National Cesar E. Chavez Blood Drive",
            "start_date": "04-04-2000",
            "end_date": "04-04-2000",
            "location": "Bowling Green State University Bowen-Thompson Student Union Multipurpose Room 228",
            "address_1": "",
            "address_2": "",
            "city": "Bowling Green",
            "state": "OH",
            "zip": "43403",
            "registration_url": "",
            "is_road_tour": "no",
            "latitude": "41.37810",
            "longitude": "-83.63750"
        },
        {
            "title": "Public Health Booth and Health Messages Chalking",
            "start_date": "03-29-2012",
            "end_date": "04-06-2012",
            "location": "University of Maryland- Stamp Student Union Food Court Booth C",
            "address_1": "Adele H. Stamp Student Union",
            "address_2": "University of Maryland",
            "city": "College Park",
            "state": "MD",
            "zip": "20742",
            "registration_url": "",
            "is_road_tour": "no",
            "latitude": "38.98819",
            "longitude": "-76.94468"
        },
        {
            "title": "City of Nashua, NH NPHW Kick-off",
            "start_date": "04-02-2012",
            "end_date": "04-02-2012",
            "location": "Nashua YMCA",
            "address_1": "24 Stadium Drive",
            "address_2": "",
            "city": "Nashua",
            "state": "NH",
            "zip": "03062",
            "registration_url": "http://www.nashuanh.gov/CityGovernment/Departments/PublicHealthCommunityServices/tabid/109/Default.aspx",
            "is_road_tour": "no",
            "latitude": "42.74784",
            "longitude": "-71.50374"
        },
        {
            "title": "Licking County Public Health Week Poster Contest",
            "start_date": "04-02-2012",
            "end_date": "04-06-2012",
            "location": "Licking County Health Department",
            "address_1": "675 Price Road",
            "address_2": "",
            "city": "Newark",
            "state": "OH",
            "zip": "43055",
            "registration_url": "www.lickingcohealth.org",
            "is_road_tour": "no",
            "latitude": "40.09942",
            "longitude": "-82.44262"
        },
        {
            "title": "Celebrate National Public Health Week 2012 with the University of South Florida College of Public He",
            "start_date": "03-30-2012",
            "end_date": "04-05-2012",
            "location": "Unless otherwise listed, all events will be held at the University of South Florida (USF) College of Public Health (COPH)  ",
            "address_1": "13201 Bruce B. Downs Blvd.  ",
            "address_2": "",
            "city": "Tampa,",
            "state": "FL",
            "zip": "33612 ",
            "registration_url": "",
            "is_road_tour": "no",
            "latitude": "28.06644",
            "longitude": "-82.42594"
        },
        {
            "title": "Panel Discussion: Impact of Alcohol Use on Injuries and Violence",
            "start_date": "04-03-2012",
            "end_date": "04-03-2012",
            "location": "Emory University- Rollins School of Public Health ",
            "address_1": "1518 Clifton Road Northeast",
            "address_2": "",
            "city": "Atlanta",
            "state": "GA",
            "zip": "30329",
            "registration_url": "",
            "is_road_tour": "yes",
            "latitude": "33.79744",
            "longitude": "-84.32272"
        },
        {
            "title": "NPHW Forum: Addressing the Correlation of Mental Health, Equity and Substance Abuse",
            "start_date": "04-06-2012",
            "end_date": "04-06-2012",
            "location": "Morgan State University, Murphy Fine Arts Center ",
            "address_1": "2201 Argonne Drive ",
            "address_2": "",
            "city": "Baltimore ",
            "state": "MD",
            "zip": "21251",
            "registration_url": "",
            "is_road_tour": "yes",
            "latitude": "39.33887",
            "longitude": "-76.58172"
        },
        {
            "title": "Public Health Networking Event at “The Big Food” Exhibit at Yale-Peabody Museum",
            "start_date": "04-05-2012",
            "end_date": "04-06-2012",
            "location": "Yale-Peabody Museum",
            "address_1": "170 Whitney Avenue",
            "address_2": "",
            "city": "New Haven",
            "state": "CT",
            "zip": "06511",
            "registration_url": "www.cpha.info",
            "is_road_tour": "no",
            "latitude": "41.31511",
            "longitude": "-72.92085"
        },
        {
            "title": "Emergency Preparedness Begins at Home",
            "start_date": "04-03-2012",
            "end_date": "04-03-2012",
            "location": "Brookline Department of Public Health",
            "address_1": "11 Pierce Street",
            "address_2": "",
            "city": "Brookline",
            "state": "MA",
            "zip": "02445",
            "registration_url": "",
            "is_road_tour": "no",
            "latitude": "42.33448",
            "longitude": "-71.11971"
        },
        {
            "title": "Annual Rabies Clinic",
            "start_date": "04-07-2012",
            "end_date": "04-07-2012",
            "location": "Brookline Town Hall",
            "address_1": "11 Pierce Street",
            "address_2": "",
            "city": "Brookline",
            "state": "MA",
            "zip": "02445",
            "registration_url": "",
            "is_road_tour": "no",
            "latitude": "42.33448",
            "longitude": "-71.11971"
        },
        {
            "title": "Emergency Preparedness Begins at Home",
            "start_date": "04-03-2012",
            "end_date": "04-03-2012",
            "location": "Brookline Department of Public Health",
            "address_1": "11 Pierce Street",
            "address_2": "",
            "city": "Brookline",
            "state": "MA",
            "zip": "02445",
            "registration_url": "",
            "is_road_tour": "no",
            "latitude": "42.33448",
            "longitude": "-71.11971"
        },
        {
            "title": "Be A Germ Buster:&nbsp; Learn to Wash Your Hands and Cover Your Cough",
            "start_date": "04-02-2012",
            "end_date": "04-02-2012",
            "location": "Pine Manor College",
            "address_1": "",
            "address_2": "",
            "city": "Brookline ",
            "state": "MA",
            "zip": "02445",
            "registration_url": "",
            "is_road_tour": "no",
            "latitude": "42.33280",
            "longitude": "-71.13891"
        },
        {
            "title": "Why Not Pot?&nbsp; Marijuana and the Teen Brain",
            "start_date": "03-27-2012",
            "end_date": "03-27-2012",
            "location": "MLK Room, Brookline High School",
            "address_1": "115 Greenough Street",
            "address_2": "",
            "city": "Brookline",
            "state": "MA",
            "zip": "02130",
            "registration_url": "",
            "is_road_tour": "no",
            "latitude": "42.33278",
            "longitude": "-71.12870"
        },
        {
            "title": "Blue Cross and Blue Shield of North Carolina - Dialogue for a Healthier Community",
            "start_date": "04-02-2012",
            "end_date": "04-02-2000",
            "location": "UNC Charlotte Student Union",
            "address_1": "9201 University City Blvd",
            "address_2": "",
            "city": "Charlotte",
            "state": "NC",
            "zip": "28223",
            "registration_url": "http://health.uncc.edu/Health_Dialogue",
            "is_road_tour": "no",
            "latitude": "35.30145",
            "longitude": "-80.73127"
        },
        {
            "title": "The Impact of Art on Health: What Do We Know &amp; How Can We Use It in Public Health?",
            "start_date": "04-05-2012",
            "end_date": "04-05-2012",
            "location": "University of Illinois at Chicago School of Public Health",
            "address_1": "1603 W. Taylor Street",
            "address_2": "Room 121",
            "city": "Chicago",
            "state": "IL",
            "zip": "60612",
            "registration_url": "",
            "is_road_tour": "no",
            "latitude": "41.86924",
            "longitude": "-87.66772"
        },
        {
            "title": "World Health Day Symposium",
            "start_date": "04-04-2012",
            "end_date": "04-04-2012",
            "location": "University of Illinois at Chicago School of Public Health",
            "address_1": "1603 W. Taylor Street",
            "address_2": "Room 109",
            "city": "Chicago",
            "state": "IL",
            "zip": "60612",
            "registration_url": "",
            "is_road_tour": "no",
            "latitude": "41.86924",
            "longitude": "-87.66772"
        },
        {
            "title": "University of Illinois at Chicago School of Public Health 7th Annual Research and Practice Poster Fo",
            "start_date": "04-03-2012",
            "end_date": "04-03-2012",
            "location": "University of Illinois at Chicago School of Public Health",
            "address_1": "1603 W. Taylor Street",
            "address_2": "",
            "city": "Chicago",
            "state": "IL",
            "zip": "60612",
            "registration_url": "",
            "is_road_tour": "no",
            "latitude": "41.86924",
            "longitude": "-87.66772"
        },
        {
            "title": "Social Determinants of Health: Solving Problems in Partnership",
            "start_date": "04-05-2012",
            "end_date": "04-05-2012",
            "location": "Lincoln Recital Hall ",
            "address_1": "1620 SW Park Avenue ",
            "address_2": "",
            "city": "Portland ",
            "state": "OR",
            "zip": "97201",
            "registration_url": "https://atrial.qualtrics.com/SE/?SID=SV_etDMExOKzTWyfdy",
            "is_road_tour": "no",
            "latitude": "45.51400",
            "longitude": "-122.68361"
        },
        {
            "title": "Fort Bragg National Public Health Week Celebration",
            "start_date": "03-31-2012",
            "end_date": "04-05-2012",
            "location": "Fort Bragg, North Carolina",
            "address_1": "",
            "address_2": "",
            "city": "Fort Bragg",
            "state": "NC",
            "zip": "28310",
            "registration_url": "",
            "is_road_tour": "no",
            "latitude": "35.12360",
            "longitude": "-78.99104"
        },
        {
            "title": "National Public Health Week 2012",
            "start_date": "04-02-2012",
            "end_date": "04-06-2012",
            "location": "University of Alaska Anchorage (UAA) Campus",
            "address_1": "",
            "address_2": "",
            "city": "Anchorage",
            "state": "AK",
            "zip": "",
            "registration_url": "",
            "is_road_tour": "no",
            "latitude": "61.21806",
            "longitude": "-149.90028"
        },
        {
            "title": "Joint Base San Antonio Public Health Professional Forum, Topic: Isolation and Quarantine, what every",
            "start_date": "04-03-2012",
            "end_date": "04-03-2012",
            "location": "Army Medical Department Center and School (Fort Sam Houston)",
            "address_1": "Army Medical Department Center and School, Bldg 2841",
            "address_2": "2250 Stanley Road, Willis Hall, Room 2202",
            "city": "Fort Sam Houston",
            "state": "TX",
            "zip": "78234",
            "registration_url": "",
            "is_road_tour": "no",
            "latitude": "29.44221",
            "longitude": "-98.44251"
        },
        {
            "title": "Documentaries on the History of Alcohol Consumption in the U.S.",
            "start_date": "04-02-2012",
            "end_date": "04-02-2012",
            "location": "Department of Public Health ",
            "address_1": "5115 El Paso Drive ",
            "address_2": "",
            "city": "El Paso",
            "state": "TX",
            "zip": "79905",
            "registration_url": "",
            "is_road_tour": "no",
            "latitude": "31.77144",
            "longitude": "-106.42926"
        },
        {
            "title": "Improving the Public’s Health:&nbsp; The Role of Coordinated Care Organizations (CCOs)",
            "start_date": "04-04-2012",
            "end_date": "04-04-2012",
            "location": "Portland State Office Building Conferences Room 1B & 1C",
            "address_1": "800 NE Oregon Street",
            "address_2": "",
            "city": "Portland",
            "state": "OR",
            "zip": "97232",
            "registration_url": "",
            "is_road_tour": "no",
            "latitude": "45.52862",
            "longitude": "-122.65762"
        },
        {
            "title": "Drug Abuse with Guest Speaker William A. Zule, DrPH ,Research Scientist at the Research Triangle Ins",
            "start_date": "04-06-2012",
            "end_date": "04-06-2012",
            "location": "University of Texas at El Paso Health Sciences and Nursing Building (HSN) Room 206",
            "address_1": "1851 Wiggins Rd",
            "address_2": "",
            "city": "El Paso",
            "state": "TX",
            "zip": "79901",
            "registration_url": "",
            "is_road_tour": "no",
            "latitude": "31.76813",
            "longitude": "-106.50536"
        },
        {
            "title": "HIV Counseling &amp; Testing for students, faculty, and staff only.",
            "start_date": "04-05-2012",
            "end_date": "04-05-2012",
            "location": "University of Texas at El Paso Health Sciences and Nursing Building (HSN) Rooms 212 & 213",
            "address_1": "1851 Wiggins Rd",
            "address_2": "",
            "city": "El Paso",
            "state": "TX",
            "zip": "79901",
            "registration_url": "",
            "is_road_tour": "no",
            "latitude": "31.76813",
            "longitude": "-106.50536"
        },
        {
            "title": "“How Healthy Are We?&#8221; and &#8220;Healthy Eating&#8221; Expert Panel",
            "start_date": "04-03-2012",
            "end_date": "04-03-2012",
            "location": "University of texas at El Paso,  Templeton Suite – Union Building East 313",
            "address_1": "",
            "address_2": "",
            "city": "El Paso",
            "state": "TX",
            "zip": "79901",
            "registration_url": "",
            "is_road_tour": "no",
            "latitude": "31.75974",
            "longitude": "-106.47887"
        },
        {
            "title": "&#8220;Question, Persuade, and Refer (QPR)&#8221; Suicide Prevention Training",
            "start_date": "04-02-2012",
            "end_date": "04-02-2000",
            "location": "University of Texas at El Paso Health Sciences and Nursing Building (HSN) Room 206",
            "address_1": "1851 Wiggins Rd",
            "address_2": "",
            "city": "El Paso",
            "state": "TX",
            "zip": "79901",
            "registration_url": "",
            "is_road_tour": "no",
            "latitude": "31.76813",
            "longitude": "-106.50536"
        },
        {
            "title": "Public Health Promotional Displays - UTEP &amp; Community Partners",
            "start_date": "04-02-2012",
            "end_date": "11-30-2000",
            "location": "University of Texas at El Paso Health Sciences and Nursing Building (HSN)",
            "address_1": "1851 Wiggins Rd",
            "address_2": "",
            "city": "El Paso",
            "state": "UT",
            "zip": "79901",
            "registration_url": "",
            "is_road_tour": "no",
            "latitude": "31.76813",
            "longitude": "-106.50536"
        },
        {
            "title": "Move! El Paso Walking Trails Kick-off",
            "start_date": "04-02-2012",
            "end_date": "04-02-2012",
            "location": "Multiple Locations ",
            "address_1": "5115 El Paso Drive ",
            "address_2": "",
            "city": "El Paso ",
            "state": "TX",
            "zip": "79905",
            "registration_url": "",
            "is_road_tour": "no",
            "latitude": "31.77144",
            "longitude": "-106.42926"
        },
        {
            "title": "Free Health Screenings and Healthy Eating Day!",
            "start_date": "04-03-2012",
            "end_date": "04-03-2012",
            "location": "Sun Lounge Spa ",
            "address_1": "2303 Ranch Road 620 South",
            "address_2": "",
            "city": "Lakeway ",
            "state": "TX",
            "zip": "78734 ",
            "registration_url": "",
            "is_road_tour": "no",
            "latitude": "30.34122",
            "longitude": "-97.96668"
        },
        {
            "title": "National Public Health Week",
            "start_date": "04-02-2012",
            "end_date": "04-06-2012",
            "location": "Grand Forks, ND",
            "address_1": "Grand Forks Public Health Department",
            "address_2": "151 S4th St,N301",
            "city": "Grand Forks",
            "state": "ND",
            "zip": "58201",
            "registration_url": "",
            "is_road_tour": "no",
            "latitude": "47.92314",
            "longitude": "-97.02919"
        },
        {
            "title": "Healthy Habits Day",
            "start_date": "04-13-2012",
            "end_date": "04-13-2012",
            "location": "Oregon State Memorial Union Quad",
            "address_1": "2501 SW Jefferson Street",
            "address_2": "",
            "city": "Corvallis",
            "state": "OR",
            "zip": "97331",
            "registration_url": "",
            "is_road_tour": "no",
            "latitude": "44.56459",
            "longitude": "-123.28015"
        },
        {
            "title": "Joint Base San Antonio Public Health Professionals sponsors Health Promotion Event",
            "start_date": "04-05-2012",
            "end_date": "04-05-2012",
            "location": "Army Medical Department Center and School, Bldg 2841, Willis Hall, Food Court",
            "address_1": "2250 Stanley Road",
            "address_2": "Fort Sam Houston",
            "city": "Fort Sam Houston",
            "state": "TX",
            "zip": "78234",
            "registration_url": "",
            "is_road_tour": "no",
            "latitude": "29.44989",
            "longitude": "-98.45838"
        },
        {
            "title": "Healthy Eating 101: Maximize Your Grocery Store Experience",
            "start_date": "04-04-2012",
            "end_date": "04-04-2012",
            "location": "Goodwin's Organic Food and Drinks",
            "address_1": "191 W Big Springs Rd",
            "address_2": "",
            "city": "Riverside",
            "state": "CA",
            "zip": "92507",
            "registration_url": "",
            "is_road_tour": "no",
            "latitude": "33.97605",
            "longitude": "-117.31538"
        },
        {
            "title": "COWNT Coalition Presents: &#8220;The Evolving Role of the Community Health Workers in Building Public Heal",
            "start_date": "04-20-2012",
            "end_date": "04-20-2012",
            "location": "Rebecca M Johnson Elementary School",
            "address_1": "55 Catherine Street",
            "address_2": "",
            "city": "Springfield",
            "state": "MA",
            "zip": "01109",
            "registration_url": "N/A",
            "is_road_tour": "no",
            "latitude": "42.11274",
            "longitude": "-72.56468"
        },
        {
            "title": "2012 Public Health Week Conference",
            "start_date": "04-03-2012",
            "end_date": "04-03-2012",
            "location": "River Front Conference Center ",
            "address_1": "1 River Front Center West",
            "address_2": "",
            "city": "Flint ",
            "state": "MI",
            "zip": "48502",
            "registration_url": "http://www.gchd.us/NPHWConference/2012/NPHW_Conference_Registration.asp",
            "is_road_tour": "no",
            "latitude": "43.01430",
            "longitude": "-83.68935"
        },
        {
            "title": "Presentation: Enduring Regret by Chris Sandy",
            "start_date": "04-02-2012",
            "end_date": "04-02-2012",
            "location": "101 Miller Learning Center ",
            "address_1": "101 Miller Learning Center ",
            "address_2": "",
            "city": "Athens",
            "state": "GA",
            "zip": "30602",
            "registration_url": "",
            "is_road_tour": "no",
            "latitude": "33.95166",
            "longitude": "-83.37608"
        },
        {
            "title": "Un-Natural Causes: Is inequality Making Us Sick",
            "start_date": "12-27-2000",
            "end_date": "01-31-2012",
            "location": "Oregon Health and Science University - School of Nursing",
            "address_1": "700 Southwest Campus Drive",
            "address_2": "",
            "city": "Portland",
            "state": "OR",
            "zip": "97239",
            "registration_url": "",
            "is_road_tour": "no",
            "latitude": "45.49927",
            "longitude": "-122.68909"
        },
        {
            "title": "Wichita Falls-Wichita County Public Health District&#8217;s 6th Annual Health Fair",
            "start_date": "04-14-2012",
            "end_date": "04-14-2012",
            "location": "Health Department building",
            "address_1": "1700 Third Street",
            "address_2": "",
            "city": "Wichita Falls",
            "state": "TX",
            "zip": "76301",
            "registration_url": "",
            "is_road_tour": "no",
            "latitude": "33.91227",
            "longitude": "-98.50483"
        },
        {
            "title": "Solid Rock Sanctuary Dedication Day Health Fair",
            "start_date": "04-07-2012",
            "end_date": "04-07-2012",
            "location": "Conley Georgia",
            "address_1": "1915 Rockcut Place",
            "address_2": "",
            "city": "Conley",
            "state": "GA",
            "zip": "30297",
            "registration_url": "",
            "is_road_tour": "no",
            "latitude": "33.63931",
            "longitude": "-84.32674"
        },
        {
            "title": "Eating Healthy for a Long Life",
            "start_date": "04-02-2012",
            "end_date": "04-02-2012",
            "location": "Brookline Senior Center",
            "address_1": "93 Winchester Street",
            "address_2": "",
            "city": "Brookline ",
            "state": "MA",
            "zip": "02445",
            "registration_url": "",
            "is_road_tour": "no",
            "latitude": "42.34349",
            "longitude": "-71.12794"
        },
        {
            "title": "Oregon Young Employee Safety O[yes] Video Screening",
            "start_date": "04-14-2012",
            "end_date": "04-14-2012",
            "location": "Northern Lights Theater",
            "address_1": "3893 Commercial St. SE",
            "address_2": "",
            "city": "Salem",
            "state": "OR",
            "zip": "97302",
            "registration_url": "",
            "is_road_tour": "no",
            "latitude": "44.89989",
            "longitude": "-123.03987"
        },
        {
            "title": "Quality Work, Quality Care:&nbsp; A State-of-the-Art, National Conference for Home Care Stakeholders",
            "start_date": "04-02-2012",
            "end_date": "04-02-2012",
            "location": "Washington, DC",
            "address_1": "1825 Connecticut Ave., NW",
            "address_2": "",
            "city": "Washington",
            "state": "DC",
            "zip": "20009",
            "registration_url": "homecareconference.fhi360.org",
            "is_road_tour": "no",
            "latitude": "38.91517",
            "longitude": "-77.04563"
        },
        {
            "title": "National Public Health Week Kick-Off",
            "start_date": "04-02-2012",
            "end_date": "04-02-2012",
            "location": "Florida International University",
            "address_1": "11200 SW 8 Street",
            "address_2": "",
            "city": "Miami",
            "state": "FL",
            "zip": "33199",
            "registration_url": "",
            "is_road_tour": "no",
            "latitude": "25.76100",
            "longitude": "-80.37623"
        },
        {
            "title": "National Public Health Week Communications Drill and Special Event",
            "start_date": "04-06-2012",
            "end_date": "04-07-2012",
            "location": "Oklahoma City-County Health Department",
            "address_1": "",
            "address_2": "",
            "city": "Oklahoma City",
            "state": "OK",
            "zip": "73105",
            "registration_url": "",
            "is_road_tour": "no",
            "latitude": "35.52086",
            "longitude": "-97.50577"
        },
        {
            "title": "Athens AIDS Walk",
            "start_date": "04-07-2012",
            "end_date": "04-07-2012",
            "location": "Tate Center, University of Georgia, Athens, Georgia",
            "address_1": "The University of Georgia, Tate Student Center",
            "address_2": "Athens, Georgia 30602",
            "city": "Athens",
            "state": "GA",
            "zip": "30605",
            "registration_url": "https://sna.etapestry.com/fundraiser/AIDSAthens/AIDSWalk/",
            "is_road_tour": "no",
            "latitude": "33.95052",
            "longitude": "-83.37519"
        },
        {
            "title": "Telling the Public Health Story, The 13th Annual Ned E. Baker Lecture in Public Health",
            "start_date": "03-29-2012",
            "end_date": "03-29-2012",
            "location": "228 Bowen-Thompson Student Union",
            "address_1": "Bowling Green State University",
            "address_2": "",
            "city": "Bowling Green",
            "state": "OH",
            "zip": "43402",
            "registration_url": "",
            "is_road_tour": "no",
            "latitude": "41.37638",
            "longitude": "-83.62375"
        },
        {
            "title": "National Public Health Week Film Festival",
            "start_date": "04-02-2012",
            "end_date": "04-06-2012",
            "location": "University of Minnesota Twin Cities East Bank Campus",
            "address_1": "",
            "address_2": "",
            "city": "Minneapolis",
            "state": "MN",
            "zip": "55455",
            "registration_url": "",
            "is_road_tour": "no",
            "latitude": "44.97416",
            "longitude": "-93.23420"
        },
        {
            "title": "Tuscaloosa County Health Department&#8217;s Health Fair for National Public Health Week",
            "start_date": "04-05-2012",
            "end_date": "04-05-2012",
            "location": "Tuscaloosa County Health Department",
            "address_1": "2350 Hargrove Road E. ",
            "address_2": "",
            "city": "Tuscaloosa",
            "state": "AL",
            "zip": "35405",
            "registration_url": "",
            "is_road_tour": "no",
            "latitude": "33.17984",
            "longitude": "-87.50591"
        },
        {
            "title": "Epidemiology and Health Policy:&nbsp; Using Both to Improve Health in St. Louis",
            "start_date": "04-05-2012",
            "end_date": "04-05-2012",
            "location": "Room 1503 Salus Center",
            "address_1": "Saint Louis University School of Public Health",
            "address_2": "3545 Lafayette Avenue",
            "city": "Saint Louis",
            "state": "MO",
            "zip": "63104",
            "registration_url": "",
            "is_road_tour": "no",
            "latitude": "38.61605",
            "longitude": "-90.22916"
        },
        {
            "title": "TB: A NEW look at an OLD bug",
            "start_date": "04-04-2012",
            "end_date": "04-04-2012",
            "location": "Public Health Museum in Massachusetts",
            "address_1": "365 East Street",
            "address_2": "",
            "city": "Tewksbury",
            "state": "MA",
            "zip": "01876",
            "registration_url": "",
            "is_road_tour": "no",
            "latitude": "42.61250",
            "longitude": "-71.21686"
        },
        {
            "title": "The Role of Public Health Nurses in Vaccine Preventable Diseases",
            "start_date": "04-03-2012",
            "end_date": "04-03-2012",
            "location": "Public Health Museum of Massachusetts",
            "address_1": "365 East Street ",
            "address_2": "",
            "city": "Tewksbury",
            "state": "MA",
            "zip": "01876",
            "registration_url": "http://www.publichealthmuseum.org",
            "is_road_tour": "no",
            "latitude": "42.61250",
            "longitude": "-71.21686"
        },
        {
            "title": "Sue Etkind: &#8220;Recognition of a Career in TB Control&#8221;",
            "start_date": "04-02-2012",
            "end_date": "04-02-2012",
            "location": "Public Health Museum in Massachusetts",
            "address_1": "365 East Street",
            "address_2": "",
            "city": "Tewksbury",
            "state": "MA",
            "zip": "01876",
            "registration_url": "http://www.publichealthmuseum.org",
            "is_road_tour": "no",
            "latitude": "42.61250",
            "longitude": "-71.21686"
        },
        {
            "title": "Public Health Week",
            "start_date": "04-03-2012",
            "end_date": "04-03-2012",
            "location": "The University of Texas at Austin campus",
            "address_1": "",
            "address_2": "",
            "city": "Austin",
            "state": "TX",
            "zip": "78705",
            "registration_url": "",
            "is_road_tour": "no",
            "latitude": "30.29617",
            "longitude": "-97.73895"
        },
        {
            "title": "University of Illinois at Springfield Health Fair",
            "start_date": "04-04-2012",
            "end_date": "04-04-2012",
            "location": "UIS  - The Recreation and Athletic Center  (TRAC)",
            "address_1": "One University Plaza, MS REC 1008",
            "address_2": "Springfield, IL  62703",
            "city": "Springfield",
            "state": "IL",
            "zip": "62703",
            "registration_url": "",
            "is_road_tour": "no",
            "latitude": "39.76468",
            "longitude": "-89.63458"
        },
        {
            "title": "2012 Indiana Joint National Public Health Week Conference",
            "start_date": "04-02-2012",
            "end_date": "04-04-2012",
            "location": "IUPUI Campus Center",
            "address_1": "420 University Blvd.",
            "address_2": "",
            "city": "Indianapolis",
            "state": "IN",
            "zip": "46202",
            "registration_url": "www.publichealthconnect.org",
            "is_road_tour": "no",
            "latitude": "39.77376",
            "longitude": "-86.17598"
        },
        {
            "title": "2012 National Health Promotion Summit",
            "start_date": "04-10-2012",
            "end_date": "04-11-2012",
            "location": "Omni Shoreham Hotel in Washington, D.C",
            "address_1": "2500 Calvert Street, NW",
            "address_2": "",
            "city": "Washington",
            "state": "DC",
            "zip": "20008",
            "registration_url": "",
            "is_road_tour": "no",
            "latitude": "38.92303",
            "longitude": "-77.05371"
        },
        {
            "title": "5th Annual Conference on New Media, Youth, &amp; Sexual Health",
            "start_date": "04-01-2012",
            "end_date": "04-03-2012",
            "location": "Stanford Court Renaissance San Francisco Hotel",
            "address_1": "905 California Street - Nob Hill",
            "address_2": "",
            "city": "San Francisco",
            "state": "CA",
            "zip": "94108",
            "registration_url": "www.sextech.org",
            "is_road_tour": "no",
            "latitude": "37.79182",
            "longitude": "-122.40951"
        },
        {
            "title": "Walk with U.S. Surgeon General and APHA Leaders for NPHW",
            "start_date": "04-04-2012",
            "end_date": "04-04-2012",
            "location": "Denver, CO",
            "address_1": "12348 E. Montview Blvd.",
            "address_2": "University of Colorado, the Colorado Center for Health and Wellness",
            "city": "Aurora",
            "state": "CO",
            "zip": "80045",
            "registration_url": "http://www.apha.org",
            "is_road_tour": "yes",
            "latitude": "39.74743",
            "longitude": "-104.84341"
        }
    ]
}